{
  "food": [
    {
      "id": 1,
      "name": "Central Iowa Shelter & Services Food Pantry",
      "address": "1420 Mulberry St, Des Moines, IA 50309",
      "city": "Des Moines",
      "lat": 41.5868,
      "lng": -93.625,
      "phone": "(515) 284-5719",
      "website": "https://www.centraliowashelter.org/services/food-pantry/",
      "hours": "Call ahead (varies by day)",
      "daysOpen": "Varies — call to confirm",
      "requiresId": false,
      "proofOfAddress": false,
      "incomeLimits": false,
      "walkIn": true,
      "familyFriendly": true,
      "accessibilityNotes": "Wheelchair accessible",
      "notes": "No ID required. Walk-ins welcome. Serves families & individuals. Accepts donations of food and paper products; volunteers welcome. Call ahead to confirm hours. :contentReference[oaicite:0]{index=0}",
      "donationInfo": "Donations of canned goods, fresh produce, and paper products accepted; volunteer opportunities available. :contentReference[oaicite:1]{index=1}",
      "lastVerified": "2026-02"
    },
    {
      "id": 2,
      "name": "Food Bank of Iowa Distribution Center",
      "address": "1660 NE Broadway Ave, Des Moines, IA 50313",
      "city": "Des Moines",
      "lat": 41.6145,
      "lng": -93.6011,
      "phone": "(515) 564-0330",
      "website": "https://www.foodbankiowa.org",
      "hours": "Call for donation drop-off hours",
      "daysOpen": "Mon–Fri (likely)",
      "requiresId": false,
      "proofOfAddress": false,
      "incomeLimits": false,
      "walkIn": false,
      "familyFriendly": true,
      "accessibilityNotes": "Wheelchair accessible",
      "notes": "Major food bank serving central Iowa. Find partners and locations through their site. :contentReference[oaicite:2]{index=2}",
      "donationInfo": "Accepts financial donations online; contact office for food drop-off details. :contentReference[oaicite:3]{index=3}",
      "lastVerified": "2026-02"
    },
    {
      "id": 3,
      "name": "DMARC Food Pantry Network – Central",
      "address": "1435 Mulberry St, Des Moines, IA 50309",
      "city": "Des Moines",
      "lat": 41.5875,
      "lng": -93.6245,
      "phone": "(515) 277-6969",
      "website": "https://www.dmarcunited.org",
      "hours": "Varies by pantry site",
      "daysOpen": "Varies",
      "requiresId": true,
      "proofOfAddress": true,
      "incomeLimits": false,
      "walkIn": true,
      "familyFriendly": true,
      "accessibilityNotes": "Wheelchair accessible",
      "notes": "Part of the DMARC pantry network. Contact for exact schedule. :contentReference[oaicite:4]{index=4}",
      "donationInfo": "Donate non-perishable and fresh/frozen food at the DMARC warehouse: 100 Army Post Rd, Des Moines, IA 50315, Mon–Fri 11AM–3PM. :contentReference[oaicite:5]{index=5}",
      "lastVerified": "2026-02"
    },
    {
      "id": 4,
      "name": "St. Vincent de Paul Food Pantry (Des Moines)",
      "address": "1426 6th Ave, Des Moines, IA 50314",
      "city": "Des Moines",
      "lat": 41.5912,
      "lng": -93.6201,
      "phone": "(515) 282-8768",
      "website": "https://www.svdpdsm.org/social-services/",
      "hours": "Mon–Fri: approx 9AM–6PM (varies by service) ",
      "daysOpen": "Monday–Friday",
      "requiresId": false,
      "proofOfAddress": false,
      "incomeLimits": false,
      "walkIn": true,
      "familyFriendly": true,
      "accessibilityNotes": "Street parking available",
      "notes": "Food pantry through social services; hours vary, appointments recommended. :contentReference[oaicite:6]{index=6}",
      "donationInfo": "Contact St. Vincent de Paul for donation options and volunteer opportunities. :contentReference[oaicite:7]{index=7}",
      "lastVerified": "2026-02"
    },
    {
      "id": 5,
      "name": "West Des Moines Community Food Pantry (DMARC site)",
      "address": "139 6th Street, West Des Moines, IA 50265",
      "city": "West Des Moines",
      "lat": 41.5621,
      "lng": -93.7893,
      "phone": "(515) 222-3660",
      "website": "https://www.wdm.iowa.gov/government/human-services/programs-services/food-personals",
      "hours": "Mon–Fri: variable hours (see city site) ",
      "daysOpen": "Monday–Friday",
      "requiresId": true,
      "proofOfAddress": true,
      "incomeLimits": false,
      "walkIn": true,
      "familyFriendly": true,
      "accessibilityNotes": "Wheelchair accessible",
      "notes": "City pantry site in partnership with DMARC; personal care items also available. Drop-offs accepted during listed hours. :contentReference[oaicite:8]{index=8}",
      "donationInfo": "Donations of food or personal care items accepted during pantry hours; contact office for details. :contentReference[oaicite:9]{index=9}",
      "lastVerified": "2026-02"
    },
    {
      "id": 6,
      "name": "Urbandale Food Pantry",
      "address": "7901 Douglas Ave, Urbandale, IA 50322",
      "city": "Urbandale",
      "lat": 41.6389,
      "lng": -93.7589,
      "phone": "(515) 251-6688",
      "website": "https://urbandalefoodpantry.org/",
      "hours": "Mon–Thu 9:30AM–6:15PM; Sat 8AM–11:45AM",
      "daysOpen": "Monday, Tuesday, Wednesday, Thursday, Saturday",
      "requiresId": true,
      "proofOfAddress": false,
      "incomeLimits": false,
      "walkIn": true,
      "familyFriendly": true,
      "accessibilityNotes": "Wheelchair accessible",
      "notes": "Serves Urbandale area families. Walk-ins accepted.",
      "donationInfo": "Donations and volunteer opportunities available; contact pantry directly for details. :contentReference[oaicite:11]{index=11}",
      "lastVerified": "2026-02"
    }
  ],
  "shelter": [],
  "housing": [],
  "legal": []
}